{
  "folder": {
    "id": "107",
    "name": "Babysang",
    "headline": "",
    "summary": "",
    "body": "",
    "url": "https://app.barseltid.no/aktiviteter/babysang/",
    "image": "/filarkiv/bilder/babysang.jpg",
    "button_text_1": "Kart og rute",
    "button_text_2": "Del aktivitet",
    "button_text_3": "Se nettside"
  },
  "folders": [],
  "activities": [
    {
      "id": "1414",
      "name": "Musikk fra livets begynnelse",
      "summary": "I Barselsalongen",
      "is_popular": "",
      "days": "Onsdag",
      "dates": "",
      "time": "11:00:00",
      "latitude": 59.954909,
      "longitude": 10.765677,
      "distance": 4.8151180895775045
    },
    {
      "id": "1397",
      "name": "Babysang på Lovisenberg kirke",
      "summary": "Tirsdager klokka 11",
      "is_popular": "",
      "days": "Tirsdag",
      "dates": "",
      "time": "00:00:00",
      "latitude": 59.932513,
      "longitude": 10.744576,
      "distance": 2.201280745322218
    },
    {
      "id": "1396",
      "name": "Babysang i Betel og Cornelius Adventistkirke",
      "summary": "Hver torsdag kl. 11",
      "is_popular": "",
      "days": "Torsdag",
      "dates": "",
      "time": "00:00:00",
      "latitude": 59.917845,
      "longitude": 10.744604,
      "distance": 0.5747340066344374
    },
    {
      "id": "1394",
      "name": "Babysang hos Frelsesarmeen Stovner",
      "summary": "",
      "is_popular": "",
      "days": "",
      "dates": "",
      "time": "11:00:00",
      "latitude": 59.951784,
      "longitude": 10.910869,
      "distance": 10.154877433639571
    },
    {
      "id": "1393",
      "name": "Babysang hos Frelsesarmeen",
      "summary": "",
      "is_popular": "",
      "days": "Mandag",
      "dates": "",
      "time": "11:00:00",
      "latitude": 59.920649,
      "longitude": 10.758538,
      "distance": 1.1209984153630164
    },
    {
      "id": "1386",
      "name": "Babysang på Deichman Tøyen",
      "summary": "Mandager klokka 12 - gratis",
      "is_popular": "",
      "days": "",
      "dates": "",
      "time": "12:00:00",
      "latitude": 59.914078,
      "longitude": 10.775721,
      "distance": 1.6584265487146597
    },
    {
      "id": "1358",
      "name": "Tegn og trall",
      "summary": "",
      "is_popular": "",
      "days": "",
      "dates": "",
      "time": "12:00:00",
      "latitude": 59.91898,
      "longitude": 10.763791,
      "distance": 1.2067665018296307
    },
    {
      "id": "1299",
      "name": "Mortensrud kirke",
      "summary": "Velkommen - hver tirsdag klokken 12-14!",
      "is_popular": "",
      "days": "Tirsdag",
      "dates": "",
      "time": "12:00:00",
      "latitude": 59.847266,
      "longitude": 10.831965,
      "distance": 8.714421781731309
    },
    {
      "id": "1214",
      "name": "Hauketo-Prinsdal kirke",
      "summary": "Annenhver tirsdag fra kl. 11-13 med påfølgende lunsj",
      "is_popular": "",
      "days": "Tirsdag",
      "dates": "",
      "time": "11:00:00",
      "latitude": 59.839285,
      "longitude": 10.808027,
      "distance": 8.867613222762891
    },
    {
      "id": "1171",
      "name": "Bakkehaugen kirke på Tåsen",
      "summary": "Torsdager kl.11",
      "is_popular": "",
      "days": "Torsdag",
      "dates": "",
      "time": "11:00:00",
      "latitude": 59.949031,
      "longitude": 10.75399,
      "distance": 4.060216994197468
    },
    {
      "id": "1096",
      "name": "Babysang på Lambertseter",
      "summary": "Annenhver torsdag fra kl. 11. ",
      "is_popular": "",
      "days": "Tirsdag",
      "dates": "",
      "time": "11:00:00",
      "latitude": 59.870101,
      "longitude": 10.813599,
      "distance": 6.053540255971869
    },
    {
      "id": "1059",
      "name": "Generasjonssang på Fagerborghjemmet",
      "summary": "Babyer og de eldre i skjønn forening!",
      "is_popular": "",
      "days": "Tirsdag",
      "dates": "",
      "time": "12:00:00",
      "latitude": 59.926484,
      "longitude": 10.72576,
      "distance": 1.9032666759873862
    },
    {
      "id": "736",
      "name": "Oppsal kirke",
      "summary": "Annenhver tirsdag kl 12-14 i oddetallsuker",
      "is_popular": "",
      "days": "Tirsdag",
      "dates": "",
      "time": "12:00:00",
      "latitude": 59.899795,
      "longitude": 10.842946,
      "distance": 5.588190502516764
    },
    {
      "id": "514",
      "name": "Ullern menighetshus",
      "summary": "Hver onsdag kl. 11",
      "is_popular": "",
      "days": "Onsdag",
      "dates": "",
      "time": "11:00:00",
      "latitude": 59.924658,
      "longitude": 10.654676,
      "distance": 5.264429815474059
    },
    {
      "id": "513",
      "name": "Skøyen kirke",
      "summary": "Hver tirsdag kl. 11",
      "is_popular": "",
      "days": "Tirsdag",
      "dates": "",
      "time": "11:00:00",
      "latitude": 59.929176,
      "longitude": 10.687622,
      "distance": 3.736342417357475
    },
    {
      "id": "512",
      "name": "Bekkelaget kirke",
      "summary": "Hver mandag 11:45",
      "is_popular": "",
      "days": "Mandag",
      "dates": "",
      "time": "11:45:00",
      "latitude": 59.884954,
      "longitude": 10.788113,
      "distance": 3.876822073999571
    },
    {
      "id": "511",
      "name": "Røa kirke",
      "summary": "Tirsdager klokka 12",
      "is_popular": "",
      "days": "Tirsdag",
      "dates": "",
      "time": "12:00:00",
      "latitude": 59.949672,
      "longitude": 10.643418,
      "distance": 7.041965639906464
    },
    {
      "id": "510",
      "name": "Nordberg kirke",
      "summary": "Hver mandag kl. 11.30",
      "is_popular": "",
      "days": "Mandag",
      "dates": "",
      "time": "11:30:00",
      "latitude": 59.963202,
      "longitude": 10.742653,
      "distance": 5.61522457425187
    },
    {
      "id": "509",
      "name": "Østerås menighet",
      "summary": "Hver tirsdag kl. 11",
      "is_popular": "",
      "days": "Tirsdag",
      "dates": "",
      "time": "11:00:00",
      "latitude": 59.940418,
      "longitude": 10.607027,
      "distance": 8.337535806387924
    },
    {
      "id": "508",
      "name": "Voksen kirke",
      "summary": "Hver tirsdag kl. 11",
      "is_popular": "",
      "days": "Tirsdag",
      "dates": "",
      "time": "11:00:00",
      "latitude": 59.956794,
      "longitude": 10.64944,
      "distance": 7.279442696283491
    },
    {
      "id": "507",
      "name": "Vestre Aker menighetshus",
      "summary": "Mandager klokka 11.00",
      "is_popular": "",
      "days": "Mandag",
      "dates": "",
      "time": "11:00:00",
      "latitude": 59.93694,
      "longitude": 10.729117,
      "distance": 2.8532040885275105
    },
    {
      "id": "505",
      "name": "Uranienborg menighet",
      "summary": "Torsdager klokka 11. ",
      "is_popular": "",
      "days": "Torsdag",
      "dates": "",
      "time": "11:00:00",
      "latitude": 59.921269,
      "longitude": 10.719505,
      "distance": 1.75979235155032
    },
    {
      "id": "504",
      "name": "Frogner kirkestue",
      "summary": "Hver fredag kl. 11",
      "is_popular": "",
      "days": "Fredag",
      "dates": "",
      "time": "11:00:00",
      "latitude": 59.917724,
      "longitude": 10.706446,
      "distance": 2.2783480746289295
    },
    {
      "id": "502",
      "name": "Fagerborg kirke",
      "summary": "Hver tirsdag kl. 12.",
      "is_popular": "",
      "days": "Tirsdag",
      "dates": "",
      "time": "12:00:00",
      "latitude": 59.92731,
      "longitude": 10.729776,
      "distance": 1.85867952952238
    },
    {
      "id": "501",
      "name": "Svenska Kyrkan - Babycafé",
      "summary": "Tisdagar kl. 13.00-16.00 och torsdagar kl 10.00-13.00 ",
      "is_popular": "",
      "days": "Tirsdag, Torsdag",
      "dates": "",
      "time": "13:00:00",
      "latitude": 59.916917,
      "longitude": 10.746934,
      "distance": 0.4679214962397691
    },
    {
      "id": "500",
      "name": "Misjonssalen",
      "summary": "Annenhver tirsdag kl. 11",
      "is_popular": "",
      "days": "Tirsdag",
      "dates": "",
      "time": "11:00:00",
      "latitude": 59.918655,
      "longitude": 10.735993,
      "distance": 0.8664443911009454
    },
    {
      "id": "499",
      "name": "Haugerud kirke",
      "summary": "Hver torsdag kl. 10.30",
      "is_popular": "",
      "days": "Torsdag",
      "dates": "",
      "time": "10:30:00",
      "latitude": 59.921613,
      "longitude": 10.8577,
      "distance": 6.298389715785302
    },
    {
      "id": "498",
      "name": "Ris menighet",
      "summary": "Hver mandag kl. 11 og 12",
      "is_popular": "",
      "days": "Mandag",
      "dates": "",
      "time": "11:00:00",
      "latitude": 59.94828,
      "longitude": 10.702901,
      "distance": 4.627524604435399
    },
    {
      "id": "497",
      "name": "Holmlia kirke",
      "summary": "Hver torsdag kl.11.30",
      "is_popular": "",
      "days": "Torsdag",
      "dates": "",
      "time": "11:30:00",
      "latitude": 59.836254,
      "longitude": 10.792828,
      "distance": 8.894358002366268
    },
    {
      "id": "496",
      "name": "Bøler kirke",
      "summary": "Annenhver torsdag kl.11",
      "is_popular": "",
      "days": "Torsdag",
      "dates": "",
      "time": "11:00:00",
      "latitude": 59.882872,
      "longitude": 10.84054,
      "distance": 6.226114311413719
    },
    {
      "id": "495",
      "name": "Lindeberghjemmet",
      "summary": "Annenhver tirsdag kl. 12",
      "is_popular": "",
      "days": "Tirsdag",
      "dates": "",
      "time": "11:00:00",
      "latitude": 59.932637,
      "longitude": 10.881383,
      "distance": 7.857369552232104
    },
    {
      "id": "494",
      "name": "Ellingsrud kirke",
      "summary": "Hver torsdag kl.11",
      "is_popular": "",
      "days": "Torsdag",
      "dates": "",
      "time": "11:00:00",
      "latitude": 59.937092,
      "longitude": 10.916094,
      "distance": 9.852468778361466
    },
    {
      "id": "493",
      "name": "Lambertseter kirke",
      "summary": "Annenhver tirsdag kl.11",
      "is_popular": "",
      "days": "Tirsdag",
      "dates": "",
      "time": "11:00:00",
      "latitude": 59.870101,
      "longitude": 10.813599,
      "distance": 6.053540255971869
    },
    {
      "id": "492",
      "name": "Nordstrand kirke",
      "summary": "Hver onsdag kl.11.30",
      "is_popular": "",
      "days": "Onsdag",
      "dates": "",
      "time": "11:30:00",
      "latitude": 59.859444,
      "longitude": 10.8025,
      "distance": 6.708708036937152
    },
    {
      "id": "490",
      "name": "Rødtvet kirke",
      "summary": "Hver tirsdag kl. 12.30",
      "is_popular": "",
      "days": "Tirsdag",
      "dates": "",
      "time": "12:30:00",
      "latitude": 59.957313,
      "longitude": 10.868687,
      "distance": 8.438635795498689
    },
    {
      "id": "489",
      "name": "Manglerud menighet",
      "summary": "Annenhver mandag kl.11",
      "is_popular": "",
      "days": "Mandag",
      "dates": "",
      "time": "11:00:00",
      "latitude": 59.896342,
      "longitude": 10.810923,
      "distance": 4.0480745921136005
    },
    {
      "id": "486",
      "name": "Grefsen kirke",
      "summary": "Annenhver torsdag kl.11",
      "is_popular": "",
      "days": "Torsdag",
      "dates": "",
      "time": "11:00:00",
      "latitude": 59.954207,
      "longitude": 10.778865,
      "distance": 4.960067860029611
    },
    {
      "id": "484",
      "name": "Tonsen kirke",
      "summary": "Hver torsdag kl.11 og 12",
      "is_popular": "",
      "days": "Torsdag",
      "dates": "",
      "time": "11:00:00",
      "latitude": 59.942766,
      "longitude": 10.805379,
      "distance": 4.697413019287022
    },
    {
      "id": "482",
      "name": "Kampen kirke",
      "summary": "Annenhver torsdag kl 11 og 13. Inkluderer lunsj!",
      "is_popular": "",
      "days": "Torsdag",
      "dates": "",
      "time": "11:00:00",
      "latitude": 59.911914,
      "longitude": 10.782041,
      "distance": 2.006036278465171
    },
    {
      "id": "481",
      "name": "Grønland kirke",
      "summary": "Hver tirsdag klokka 12",
      "is_popular": "",
      "days": "Tirsdag",
      "dates": "",
      "time": "12:00:00",
      "latitude": 59.911319,
      "longitude": 10.767541,
      "distance": 1.2059825168675864
    },
    {
      "id": "480",
      "name": "Paulus kirke",
      "summary": "Hver torsdag kl.13",
      "is_popular": "",
      "days": "Torsdag",
      "dates": "",
      "time": "13:00:00",
      "latitude": 59.926364,
      "longitude": 10.75863,
      "distance": 1.6692893580792163
    },
    {
      "id": "479",
      "name": "Bogen musikk",
      "summary": "Babysang med profesjonell sangpedagog.",
      "is_popular": "",
      "days": "Torsdag",
      "dates": "",
      "time": "01:00:00",
      "latitude": 59.938875,
      "longitude": 10.635376,
      "distance": 6.819569858788694
    },
    {
      "id": "477",
      "name": "Barnekunstmuseet",
      "summary": "Babysang i barnevennlige omgivelser",
      "is_popular": "",
      "days": "",
      "dates": "",
      "time": "12:00:00",
      "latitude": 59.935688,
      "longitude": 10.711611,
      "distance": 3.194902397122166
    },
    {
      "id": "475",
      "name": "Oslo Bymuseum",
      "summary": "Babysang i Frognerparken",
      "is_popular": "",
      "days": "Onsdag",
      "dates": "",
      "time": "13:00:00",
      "latitude": 59.923948,
      "longitude": 10.703567,
      "distance": 2.678096436685137
    },
    {
      "id": "302",
      "name": "Ila Kirke",
      "summary": "Annenhver torsdag klokka 12",
      "is_popular": "",
      "days": "Torsdag",
      "dates": "",
      "time": "12:00:00",
      "latitude": 59.932846,
      "longitude": 10.752936,
      "distance": 2.2689897789380686
    },
    {
      "id": "298",
      "name": "Sagene kirke",
      "summary": "Annenhver torsdag klokka 12",
      "is_popular": "",
      "days": "Torsdag",
      "dates": "",
      "time": "12:00:00",
      "latitude": 59.937659,
      "longitude": 10.753063,
      "distance": 2.7989438831455162
    },
    {
      "id": "297",
      "name": "Torshov kirke",
      "summary": "Hver torsdag klokka 12",
      "is_popular": "",
      "days": "Torsdag",
      "dates": "",
      "time": "12:00:00",
      "latitude": 59.938463,
      "longitude": 10.773097,
      "distance": 3.2328312548549296
    },
    {
      "id": "295",
      "name": "Sinsen kirke",
      "summary": "Hver onsdag kl 11.30 og 13",
      "is_popular": "",
      "days": "Onsdag",
      "dates": "",
      "time": "11:30:00",
      "latitude": 59.931874,
      "longitude": 10.787491,
      "distance": 3.1390492192694053
    },
    {
      "id": "292",
      "name": "Oslo kulturskole",
      "summary": "Mandager klokka 11",
      "is_popular": "",
      "days": "Mandag",
      "dates": "",
      "time": "11:00:00",
      "latitude": 59.895053,
      "longitude": 10.821192,
      "distance": 4.625747194272049
    }
  ]
}
